[{"name":"Guildhall Public","address":{"address":"Rte. 102 N","city":"Guidlhall","state":"VT","zip":"05905"},"lat":"44.56758508700045","long":"-71.58903136899966","phone":"N/R","type":"library"},{"name":"John W. Simpson Memorial","address":{"address":"1972 E Craftsbury Rd","city":"Craftsbury Common","state":"VT","zip":"05827"},"lat":"44.63322055500049","long":"-72.32728433299962","phone":"(802) 586-9692","type":"library"},{"name":"South Ryegate Public","address":{"address":"140 Church St.","city":"South Ryegate","state":"VT","zip":"05069"},"lat":"44.186405771000466","long":"-72.14030334299963","phone":"N/R","type":"library"},{"name":"Poultney Public","address":{"address":"205 Main St.,","city":"Poultney","state":"VT","zip":"05764"},"lat":"43.51705210400047","long":"-73.23696118299966","phone":"(802) 287-5556","type":"library"},{"name":"Windsor Public","address":{"address":"43 State St.","city":"Windsor","state":"VT","zip":"05089"},"lat":"43.4805225450005","long":"-72.38846438699966","phone":"(802) 674-2556","type":"library"},{"name":"Leach Public","address":{"address":"130 Park Ave.","city":"Irasburg","state":"VT","zip":"05849"},"lat":"44.80288147100049","long":"-72.27829179399964","phone":"(802) 754-2526","type":"library"},{"name":"Tenney Memorial","address":{"address":"4886 Main St. S","city":"Newbury","state":"VT","zip":"05051"},"lat":"44.08021397800047","long":"-72.05636897499966","phone":"(802) 866-5366","type":"library"},{"name":"West Hartford","address":{"address":"5133 Rte. 14","city":"West Hartford","state":"VT","zip":"05084"},"lat":"43.71250218500046","long":"-72.41741609399963","phone":"(802) 295-7992","type":"library"},{"name":"Cavendish Fletcher Community","address":{"address":"573 Main St.","city":"Proctorsville","state":"VT","zip":"05153"},"lat":"43.383584544000485","long":"-72.63697601699965","phone":"(802) 226-7503","type":"library"},{"name":"Goodrich Memorial","address":{"address":"202 Main St","city":"Newport","state":"VT","zip":"05855"},"lat":"44.93554600100049","long":"-72.21010888899963","phone":"(802) 334-7902","type":"library"},{"name":"Isle La Motte Free Public","address":{"address":"2238 Main St.","city":"Isle La Motte","state":"VT","zip":"05463"},"lat":"44.878198075000455","long":"-73.33818793099965","phone":"(802) 928-4113","type":"library"},{"name":"South  Burlington Community","address":{"address":"550 Dorset St.","city":"S. Burlington","state":"VT","zip":"05403"},"lat":"44.45430857700046","long":"-73.17889135799965","phone":"(802) 652-7080","type":"library"},{"name":"Rutland Free","address":{"address":"10 Court St.","city":"Rutland","state":"VT","zip":"05701"},"lat":"43.6071667220005","long":"-72.97558449699966","phone":"(802) 773-1860","type":"library"},{"name":"Varnum Memorial","address":{"address":"194 Main St.","city":"Jeffersonville","state":"VT","zip":"05464"},"lat":"44.64640557100046","long":"-72.82823684199963","phone":"(802) 644-2117","type":"library"},{"name":"Fairfax Community","address":{"address":"75 Hunt Street, library located in","city":"Fairfax","state":"VT","zip":"05454"},"lat":"44.66303705000047","long":"-73.01351995099964","phone":"(802) 849-2420","type":"library"},{"name":"Norman Williams Public","address":{"address":"10 South Park St.","city":"Woodstock","state":"VT","zip":"05091"},"lat":"43.62455286700049","long":"-72.51898289499962","phone":"(802) 457-2295","type":"library"},{"name":"Hitchcock Museum & Library","address":{"address":"1252 Route 100","city":"Westfield","state":"VT","zip":"05874"},"lat":"44.88767572000046","long":"-72.42897830099963","phone":"(802) 744-8258","type":"library"},{"name":"McIndoes Academy","address":{"address":"37 Academy Lane","city":"McIndoe Falls","state":"VT","zip":"05050"},"lat":"44.26431504700048","long":"-72.06421331999962","phone":"(802) 866-5575","type":"library"},{"name":"West Rutland Public","address":{"address":"595 Main St.","city":"West Rutland","state":"VT","zip":"05777"},"lat":"43.594914005000476","long":"-73.04894445599967","phone":"(802) 438-2964","type":"library"},{"name":"Jones Memorial","address":{"address":"1 Water St.","city":"Orleans","state":"VT","zip":"05860"},"lat":"44.81092124300045","long":"-72.20214610399967","phone":"(802) 754-6660","type":"library"},{"name":"G. M. Kelley Community","address":{"address":"320 School Mill Rd","city":"Wolcott","state":"VT","zip":"05680"},"lat":"44.54222281900047","long":"-72.45793647599965","phone":"(802) 472-6551","type":"library"},{"name":"Ainsworth Public","address":{"address":"2338 VT Rte. 14","city":"Williamstown","state":"VT","zip":"05679"},"lat":"44.12250924300048","long":"-72.54128875299966","phone":"(802) 433-5887","type":"library"},{"name":"Stowe Free","address":{"address":"90 Pond Street","city":"Stowe","state":"VT","zip":"05672"},"lat":"44.4642824660005","long":"-72.68464494899968","phone":"(802) 253-6145","type":"library"},{"name":"Chelsea Public","address":{"address":"296 Rte. 110","city":"Chelsea","state":"VT","zip":"05038"},"lat":"43.98917315200049","long":"-72.44766354599966","phone":"(802) 685-2188","type":"library"},{"name":"Brooks Memorial","address":{"address":"224 Main St.","city":"Brattleboro","state":"VT","zip":"05301"},"lat":"42.85536749100049","long":"-72.55961275299967","phone":"(802) 254-5290","type":"library"},{"name":"Russell Memorial","address":{"address":"4333 State Prison Hollow Rd.","city":"Monkton","state":"VT","zip":"05469"},"lat":"44.25427423400049","long":"-73.12308526299967","phone":"(802) 453-4471","type":"library"},{"name":"Sheldon Public","address":{"address":"1640 Main St.","city":"Sheldon","state":"VT","zip":"05483"},"lat":"44.88064269600045","long":"-72.94634853199966","phone":"(802) 933-7323","type":"library"},{"name":"Pettee Memorial","address":{"address":"16 South Main Street","city":"Wilmington","state":"VT","zip":"05363"},"lat":"42.867912757000454","long":"-72.87196405799966","phone":"(802) 464-8557","type":"library"},{"name":"Alice M. Ward Memorial","address":{"address":"27 Park St.","city":"Canaan","state":"VT","zip":"05903"},"lat":"44.99548778500048","long":"-71.53898926899967","phone":"(802) 266-7135","type":"library"},{"name":"Chittenden Public","address":{"address":"223 Chittenden Road","city":"Chittenden","state":"VT","zip":"05737"},"lat":"43.70065335200047","long":"-72.95141306699963","phone":"(802) 773-3531","type":"library"},{"name":"Joslin Memorial ","address":{"address":"4391 Main St.","city":"Waitsfield","state":"VT","zip":"05673"},"lat":"44.19031787400047","long":"-72.82419800399964","phone":"(802) 496-4205","type":"library"},{"name":"George Peabody","address":{"address":"7922 Rte. 113","city":"Post Mills","state":"VT","zip":"05058"},"lat":"43.88537623600047","long":"-72.26091769099963","phone":"(802) 333-9724","type":"library"},{"name":"Belcher Memorial","address":{"address":"4452 VT Rte. 107","city":"Gaysville","state":"VT","zip":"05746"},"lat":"43.71022027300046","long":"-72.75460689199963","phone":"(802) 234-6608","type":"library"},{"name":"S.L. Griffith Memorial Library","address":{"address":"74 S. Main St.","city":"Danby","state":"VT","zip":"05739"},"lat":"43.34579240400046","long":"-72.99584026899964","phone":"(802) 293-5106","type":"library"},{"name":"Benson Public","address":{"address":"2724 Stage Rd.","city":"Benson","state":"VT","zip":"05731"},"lat":"43.7083662280005","long":"-73.31029271699964","phone":"(802) 537-4181","type":"library"},{"name":"St. Albans Free","address":{"address":"11 Maiden Ln.","city":"St. Albans","state":"VT","zip":"05478"},"lat":"44.812905129000455","long":"-73.08188288599968","phone":"(802) 524-1507","type":"library"},{"name":"Roger Clark Memorial","address":{"address":"40 Village Green","city":"Pittsfield","state":"VT","zip":"05762"},"lat":"43.770615241000485","long":"-72.81253867699962","phone":"(802) 746-4067","type":"library"},{"name":"Kellogg Hubbard","address":{"address":"135 Main St.","city":"Montpelier","state":"VT","zip":"05602"},"lat":"44.261425087000475","long":"-72.57392397399963","phone":"(802) 223-3338","type":"library"},{"name":"Brandon Free Public","address":{"address":"4 Franklin St.","city":"Brandon","state":"VT","zip":"05733"},"lat":"43.79797350700045","long":"-73.08604463199964","phone":"(802) 247-8230","type":"library"},{"name":"Westminster West Public","address":{"address":"3409 Westminster W. Rd.","city":"Westminster West","state":"VT","zip":"05346"},"lat":"43.06482203100046","long":"-72.54126743299963","phone":"(802) 387-4682","type":"library"},{"name":"Dorset Village Public","address":{"address":"Rte. 30","city":"Dorset","state":"VT","zip":"05251"},"lat":"43.21269003000049","long":"-73.06728983499966","phone":"(802) 867-5774","type":"library"},{"name":"Sherburne Memorial","address":{"address":"2998 River Rd.","city":"Killington","state":"VT","zip":"05751"},"lat":"43.67164953100047","long":"-72.77635733399967","phone":"(802) 422-9765","type":"library"},{"name":"Shrewsbury","address":{"address":"98 Town Hill Rd.","city":"Shrewsbury","state":"VT","zip":"05738"},"lat":"43.48944114900047","long":"-72.88091227299964","phone":"(802) 492-3410","type":"library"},{"name":"Castleton Free","address":{"address":"638 Main St.","city":"Castleton","state":"VT","zip":"05735"},"lat":"43.611646159000486","long":"-73.17829737799963","phone":"(802) 468-5574","type":"library"},{"name":"Readsboro Community","address":{"address":"301 Phelps Ln.","city":"Readsboro","state":"VT","zip":"05350"},"lat":"42.771405882000465","long":"-72.94067284099964","phone":"(802) 423-5460","type":"library"},{"name":"Starksboro Public","address":{"address":"2827 Rte. 116","city":"Starksboro","state":"VT","zip":"05487"},"lat":"44.22521294900048","long":"-73.05698778199962","phone":"(802) 453-3732","type":"library"},{"name":"Warren Public","address":{"address":"413 Main Street","city":"Warren","state":"VT","zip":"05674"},"lat":"44.11277813400045","long":"-72.85596623799967","phone":"(802) 496-3913","type":"library"},{"name":"Vershire Community","address":{"address":"Rt. 113","city":"Vershire","state":"VT","zip":"05079"},"lat":"43.962660395000455","long":"-72.29188706199966","phone":"(802) 685-9982","type":"library"},{"name":"Maclure ","address":{"address":"840 Arch St.","city":"Pittsford","state":"VT","zip":"05673"},"lat":"43.7060767640005","long":"-73.02697365899962","phone":"(802) 483-2972","type":"library"},{"name":"Bethel Public","address":{"address":"106 Main St.","city":"Bethel","state":"VT","zip":"05032"},"lat":"43.82977294500046","long":"-72.63184041699964","phone":"(802) 234-9107","type":"library"},{"name":"Cutler Memorial","address":{"address":"151 High St.","city":"Plainfield","state":"VT","zip":"05667"},"lat":"44.27784218800048","long":"-72.42868575199964","phone":"(802) 454-8504","type":"library"},{"name":"Westford Public","address":{"address":"1717 VT Rte. 128","city":"Westford","state":"VT","zip":"05494"},"lat":"44.612026899000455","long":"-73.01137972299966","phone":"(802) 878-5639","type":"library"},{"name":"Baxter Memorial","address":{"address":"5114 Rte. 14","city":"Sharon","state":"VT","zip":"05065"},"lat":"43.78379653500048","long":"-72.45619366299962","phone":"(802) 763-2875","type":"library"},{"name":"Wardsboro Free Public","address":{"address":"170 Main St.","city":"Wardsboro","state":"VT","zip":"05355"},"lat":"43.043105881000486","long":"-72.79006450599962","phone":"(802) 896-6988","type":"library"},{"name":"H. F. Brigham Free","address":{"address":"104 Main St.","city":"Bakersfield","state":"VT","zip":"05441"},"lat":"44.78354006300049","long":"-72.80112452199967","phone":"(802) 827-4414","type":"library"},{"name":"Salisbury Free Public","address":{"address":"918 Maple St.","city":"Salisbury","state":"VT","zip":"05769"},"lat":"43.8964232240005","long":"-73.10161988699963","phone":"(802) 458-0747","type":"library"},{"name":"Platt Memorial","address":{"address":"279 Main St.","city":"Shoreham","state":"VT","zip":"05770"},"lat":"43.89379146600049","long":"-73.31458738599963","phone":"(802) 897-2647","type":"library"},{"name":"Barton Public","address":{"address":"100 Church St.","city":"Barton","state":"VT","zip":"05822"},"lat":"44.749586594000505","long":"-72.18042758599967","phone":"(802) 525-6524","type":"library"},{"name":"Burnham Memorial","address":{"address":"898 Main Street","city":"Colchester","state":"VT","zip":"05446"},"lat":"44.544279359000484","long":"-73.14939293799966","phone":"(802) 879-7576","type":"library"},{"name":"Huntington Public","address":{"address":"2156 Main Rd.","city":"Huntington","state":"VT","zip":"05462"},"lat":"44.32665289100049","long":"-72.98768087199966","phone":"(802) 434-4583","type":"library"},{"name":"Norwich Public","address":{"address":"368 Main St.","city":"Norwich","state":"VT","zip":"05055"},"lat":"43.71679803900048","long":"-72.30889456899968","phone":"(802) 649-1184","type":"library"},{"name":"Greensboro Free","address":{"address":"53 Wilson Street","city":"Greensboro","state":"VT","zip":"05841"},"lat":"44.57677057900048","long":"-72.29600937699962","phone":"(802) 533-2531","type":"library"},{"name":"Moretown Memorial","address":{"address":"897 Rte. 100 B","city":"Moretown","state":"VT","zip":"05660"},"lat":"44.24749287800046","long":"-72.76390918899966","phone":"(802) 496-9728","type":"library"},{"name":"Morrill Mem. & Harris","address":{"address":"220 Justin Morrill Hwy.","city":"Strafford","state":"VT","zip":"05072"},"lat":"43.8779418310005","long":"-72.38246586099967","phone":"(802) 765-4037","type":"library"},{"name":"Haston","address":{"address":"5167 Main St.","city":"Franklin","state":"VT","zip":"05457"},"lat":"44.9815840010005","long":"-72.91561191899967","phone":"(802) 285-6505","type":"library"},{"name":"Fletcher Free","address":{"address":"235 College St.","city":"Burlington","state":"VT","zip":"05401"},"lat":"44.47717239500048","long":"-73.21010824999968","phone":"(802) 863-3403","type":"library"},{"name":"Essex Free","address":{"address":"1 Browns River Road","city":"Essex","state":"VT","zip":"05451"},"lat":"44.51200232700046","long":"-73.05870399099967","phone":"(802) 879-0313","type":"library"},{"name":"Tyson","address":{"address":"867 Route 100","city":"Ludlow","state":"VT","zip":"05149"},"lat":"43.44095971200045","long":"-72.69905802799963","phone":"N/A","type":"library"},{"name":"Mary L. Blood Memorial","address":{"address":"41 Brownsville Hartland Rd.","city":"Brownsville","state":"VT","zip":"05037"},"lat":"43.4684039710005","long":"-72.47126365999964","phone":"(802) 484-7205","type":"library"},{"name":"Stamford Community","address":{"address":"986 Main Rd.","city":"Stamford","state":"VT","zip":"05352"},"lat":"42.75501010000045","long":"-73.06813544499965","phone":"(802) 694-1379","type":"library"},{"name":"Wilder Memorial","address":{"address":"24 Lawrence Hill Rd.","city":"Weston","state":"VT","zip":"05161"},"lat":"43.291561844000455","long":"-72.79469436199963","phone":"(802) 824-4307","type":"library"},{"name":"Blake Memorial","address":{"address":"676 Village Rd.","city":"E. Corinth","state":"VT","zip":"05040"},"lat":"44.0637921390005","long":"-72.22211406399964","phone":"(802) 439-5338","type":"library"},{"name":"Alden Balch Memorial","address":{"address":"24 E. Main St.","city":"Lunenburg","state":"VT","zip":"05906"},"lat":"44.46322241900049","long":"-71.68156849199966","phone":"(802) 892-5365","type":"library"},{"name":"Walden Community","address":{"address":"135 Cahoon Farm Rd.","city":"West Danville","state":"VT","zip":"05873"},"lat":"44.452547336000464","long":"-72.21932004199965","phone":"(802) 563-3000","type":"library"},{"name":"Cobleigh Public","address":{"address":"14 Depot St.","city":"Lyndonville","state":"VT","zip":"05851"},"lat":"44.53516227200049","long":"-72.00477846399963","phone":"(802) 626-5475","type":"library"},{"name":"Quechee ","address":{"address":"1957 Quechee Main St.","city":"Quechee","state":"VT","zip":"05059"},"lat":"43.6483142940005","long":"-72.42154494699963","phone":"(802) 295-1232","type":"library"},{"name":"Latham Memorial","address":{"address":"16 Library Ln.","city":"Thetford","state":"VT","zip":"05074"},"lat":"43.82050085800046","long":"-72.23245888999963","phone":"(802) 785-4361","type":"library"},{"name":"Bixby Memorial","address":{"address":"258 Main St.","city":"Vergennes","state":"VT","zip":"05491"},"lat":"44.16723610100047","long":"-73.25358081799965","phone":"(802) 877-2211","type":"library"},{"name":"Orwell Free Library","address":{"address":"473 Main St.","city":"Orwell Vt","state":"VT","zip":"05760"},"lat":"43.80359157200047","long":"-73.29991847399964","phone":"(802) 948-2041","type":"library"},{"name":"Lowell Community","address":{"address":"Vermont 100","city":"Lowell","state":"VT","zip":"05847"},"lat":"44.728276363000475","long":"-72.49863663099967","phone":"(802) 744-2447","type":"library"},{"name":"New Haven Community","address":{"address":"78 North St.","city":"New Haven","state":"VT","zip":"05472"},"lat":"44.125977194000484","long":"-73.15384405799966","phone":"(802) 453-4015","type":"library"},{"name":"Pawlet Public","address":{"address":"141 School St.","city":"Pawlet","state":"VT","zip":"05761"},"lat":"43.345482089000484","long":"-73.17928991299965","phone":"(802) 325-3123","type":"library"},{"name":"Davies Memorial","address":{"address":"111 Lower Waterford Rd","city":"Lower Waterford","state":"VT","zip":"05848"},"lat":"44.35440209900048","long":"-71.90749592899965","phone":"(802) 748-4609","type":"library"},{"name":"Proctor Free","address":{"address":"4 Main St.","city":"Proctor","state":"VT","zip":"05765"},"lat":"43.66127631000046","long":"-73.03294305699967","phone":"(802) 459-3539","type":"library"},{"name":"Glover Public","address":{"address":"51 Bean Hill Rd","city":"Glover","state":"VT","zip":"05839"},"lat":"44.70721197300048","long":"-72.18799833199967","phone":"(802) 525-4365","type":"library"},{"name":"Bennington Free","address":{"address":"101 Silver St.","city":"Bennington","state":"VT","zip":"05201"},"lat":"42.87796545200047","long":"-73.19378802399967","phone":"(802) 442-9051","type":"library"},{"name":"Butterfield","address":{"address":"3534 US Rte. 5","city":"Westminster","state":"VT","zip":"05158"},"lat":"43.06745615800048","long":"-72.45894978499967","phone":"(802) 722-4891","type":"library"},{"name":"Hancock Free Public","address":{"address":"47 Rte. 125","city":"Hancock","state":"VT","zip":"05748"},"lat":"43.92635411000049","long":"-72.84226898199967","phone":"(802) 767-4651","type":"library"},{"name":"Barnet Public","address":{"address":"147 Church St.","city":"Barnet","state":"VT","zip":"05821"},"lat":"44.296372276000454","long":"-72.05279324299966","phone":"(802) 633-4436","type":"library"},{"name":"Wm. & Lucy Rand Memorial","address":{"address":"160 Railroad St.","city":"North Troy","state":"VT","zip":"05859"},"lat":"44.997386393000454","long":"-72.40538249399964","phone":"(802) 988-4741","type":"library"},{"name":"Albany Town","address":{"address":"530 Main St.","city":"Albany","state":"VT","zip":"05820"},"lat":"44.73502558500047","long":"-72.37861220299965","phone":"(802) 755-6107","type":"library"},{"name":"Windham Town ","address":{"address":"26 Harrington Rd.","city":"Windham","state":"VT","zip":"05359"},"lat":"43.18042395700047","long":"-72.72591451499966","phone":"(802) 875-2244","type":"library"},{"name":"Fairlee Public","address":{"address":"221 US Rte 5 N","city":"Fairlee","state":"VT","zip":"05045"},"lat":"43.90597548700049","long":"-72.14603351599965","phone":"(802) 333-4716","type":"library"},{"name":"Craftsbury Public","address":{"address":"12 Church Ln.","city":"Craftsbury Common","state":"VT","zip":"05827"},"lat":"44.6693889280005","long":"-72.36178797899964","phone":"(802) 586-9683","type":"library"},{"name":"Woodbury Community","address":{"address":"69 Valley Lake Rd.","city":"Woodbury","state":"VT","zip":"05681"},"lat":"44.440652033000504","long":"-72.41624347899966","phone":"(802) 472-5715","type":"library"},{"name":"Cornwall Free Public","address":{"address":"2629 Rte. 30","city":"Cornwall","state":"VT","zip":"05753"},"lat":"43.96130281100045","long":"-73.20959303199965","phone":"(802) 462-3615","type":"library"},{"name":"West Fairlee Free Public","address":{"address":"380 Rte. 113","city":"West Fairlee","state":"VT","zip":"05083"},"lat":"43.901970072000495","long":"-72.26327786799965","phone":"(802) 333-3502","type":"library"},{"name":"Peacham","address":{"address":"656 Bayley Hazen Rd.","city":"Peacham","state":"VT","zip":"05862"},"lat":"44.32886892100049","long":"-72.17048328299967","phone":"(802) 592-3216","type":"library"},{"name":"West Burke","address":{"address":"135 Main St.","city":"West Burke","state":"VT","zip":"05871"},"lat":"44.664396516000465","long":"-71.95556906999963","phone":"(802) 467-3328","type":"library"},{"name":"Middletown Springs Public","address":{"address":"39 West St.","city":"Middletown Spgs.","state":"VT","zip":"05757"},"lat":"43.485301637000475","long":"-73.12214096699967","phone":"(802) 235-2435","type":"library"},{"name":"Tinmouth","address":{"address":"9 Mtn. View Rd.","city":"Tinmouth","state":"VT","zip":"05773"},"lat":"43.44820356200046","long":"-73.05046405399963","phone":"(802) 446-2498","type":"library"},{"name":"Highgate Public","address":{"address":"17 Mill Hill","city":"Highgate","state":"VT","zip":"05459"},"lat":"44.938315151000495","long":"-73.04484284599965","phone":"(802) 868-3970","type":"library"},{"name":"Whiting","address":{"address":"117 Main St.","city":"Chester","state":"VT","zip":"05143"},"lat":"43.26384310700047","long":"-72.59709102499966","phone":"(802) 875-2277","type":"library"},{"name":"St. Johnsbury Athenaeum","address":{"address":"1171 Main St.","city":"St. Johnsbury","state":"VT","zip":"05819"},"lat":"44.41843397200046","long":"-72.02094802299968","phone":"(802) 748-8291","type":"library"},{"name":"Roxbury Free","address":{"address":"1491 Roxbury Rd.","city":"Roxbury","state":"VT","zip":"05669"},"lat":"44.093448570000476","long":"-72.73309558999966","phone":"(802) 485-6860","type":"library"},{"name":"Winooski Memorial","address":{"address":"1 Main St.","city":"Winooski","state":"VT","zip":"05404"},"lat":"44.48975556200048","long":"-73.18648283199963","phone":"(802) 655-6424","type":"library"},{"name":"Island Pond Public","address":{"address":"49 Mill St. Ext.","city":"Island Pond","state":"VT","zip":"05846"},"lat":"44.81476465200046","long":"-71.87976758799965","phone":"(802) 723-6134","type":"library"},{"name":"Guilford Free","address":{"address":"4024 Guilford Ctr. Rd.","city":"Guilford","state":"VT","zip":"05301"},"lat":"42.79226096500048","long":"-72.62429809699967","phone":"(802) 257-4603","type":"library"},{"name":"Wells Village","address":{"address":"5 East Wells Rd.","city":"Wells","state":"VT","zip":"05774"},"lat":"43.41703700800048","long":"-73.20296625999964","phone":"(802) 645-0611","type":"library"},{"name":"Calef Memorial","address":{"address":"2964 VT Rte. 110","city":"Washington","state":"VT","zip":"05675"},"lat":"44.10766740700046","long":"-72.43335469399966","phone":"(802) 883-2343","type":"library"},{"name":"Winhall Memorial","address":{"address":"2 Lower Taylor Hill Rd.","city":"Bondville","state":"VT","zip":"05340"},"lat":"43.16947130500046","long":"-72.91855698399962","phone":"(802) 297-9741","type":"library"},{"name":"Carpenter Carse","address":{"address":"69 Ballards Corner Rd.","city":"Hinesburg","state":"VT","zip":"05461"},"lat":"44.34174582100047","long":"-73.11817437999963","phone":"(802) 482-2878","type":"library"},{"name":"Reading Public","address":{"address":"717 VT Rte 106","city":"Reading","state":"VT","zip":"05062"},"lat":"43.454386179000494","long":"-72.53733756199966","phone":"(802) 484-5588","type":"library"},{"name":"Martha Canfield Memorial","address":{"address":"528 E. Arlington Rd.","city":"Arlington","state":"VT","zip":"05250"},"lat":"43.06519393600047","long":"-73.15227116199964","phone":"(802) 375-6153","type":"library"},{"name":"Waterbury Public","address":{"address":"28 N. Main St.","city":"Waterbury","state":"VT","zip":"05676"},"lat":"44.33993841200049","long":"-72.75842418899964","phone":"(802) 244-7036","type":"library"},{"name":"Moore Free","address":{"address":"23 West St.","city":"Newfane","state":"VT","zip":"05345"},"lat":"42.98670903600049","long":"-72.65659576099966","phone":"(802) 365-7948","type":"library"},{"name":"Hartland Public","address":{"address":"153 Rte. 5","city":"Hartland","state":"VT","zip":"05048"},"lat":"43.539334684000494","long":"-72.39971979999967","phone":"(802) 436-2473","type":"library"},{"name":"Brown Public","address":{"address":"93 S. Main St.","city":"Northfield","state":"VT","zip":"05663"},"lat":"44.147486072000504","long":"-72.65631268699963","phone":"(802) 485-4621","type":"library"},{"name":"Fletcher Memorial","address":{"address":"88 Main St.","city":"Ludlow","state":"VT","zip":"05149"},"lat":"43.39680255500048","long":"-72.69482376399964","phone":"(802) 228-8921","type":"library"},{"name":"Charlotte","address":{"address":"115 Ferry Rd.","city":"Charlotte","state":"VT","zip":"05445"},"lat":"44.311042372000486","long":"-73.24942709399966","phone":"(802) 425-3864","type":"library"},{"name":"Groton Free Public","address":{"address":"1304 Scott Highway","city":"Groton","state":"VT","zip":"05046"},"lat":"44.210139375000495","long":"-72.19386319399968","phone":"(802) 584-3358","type":"library"},{"name":"Lanpher Memorial","address":{"address":"141 Main St.","city":"Hyde Park","state":"VT","zip":"05655"},"lat":"44.59356550700045","long":"-72.61716913599963","phone":"(802) 888-4628","type":"library"},{"name":"Jamaica Memorial","address":{"address":"17 Depot St.","city":"Jamaica","state":"VT","zip":"05343"},"lat":"43.1002868060005","long":"-72.77831990099963","phone":"(802) 874-4901","type":"library"},{"name":"South Londonderry Free","address":{"address":"15 Old School St.","city":"S. Londonderry","state":"VT","zip":"05155"},"lat":"43.19087902500047","long":"-72.81245120499966","phone":"(802) 824-3371","type":"library"},{"name":"Bailey Memorial","address":{"address":"111 Moulton Ave.","city":"N. Clarendon","state":"VT","zip":"05759"},"lat":"43.56473169600048","long":"-72.96807770899966","phone":"(802) 747-7743","type":"library"},{"name":"Lawrence Memorial","address":{"address":"40 North St.","city":"Bristol","state":"VT","zip":"05443"},"lat":"44.13574146700046","long":"-73.07876196699965","phone":"(802) 453-2366","type":"library"},{"name":"Gilbert Hart","address":{"address":"14 S. Main St.","city":"Wallingford","state":"VT","zip":"05773"},"lat":"43.471494976000486","long":"-72.97728767799964","phone":"(802) 446-2685","type":"library"},{"name":"Hartford","address":{"address":"1587 Maple St.","city":"Hartford","state":"VT","zip":"05047"},"lat":"43.661307267000495","long":"-72.34256022599965","phone":"(802) 296-2568","type":"library"},{"name":"Bradford Public","address":{"address":"21 S. Main St.","city":"Bradford","state":"VT","zip":"05033"},"lat":"43.992989320000504","long":"-72.12854333999962","phone":"(802) 222-4536","type":"library"},{"name":"Arvin A. Brown Public","address":{"address":"88 Main St.","city":"Richford","state":"VT","zip":"05476"},"lat":"44.9950316230005","long":"-72.67298973899966","phone":"(802) 848-3313","type":"library"},{"name":"Enosburgh Public","address":{"address":"241 Main St.","city":"Enosburg Falls","state":"VT","zip":"05450"},"lat":"44.90595471300048","long":"-72.80579228099964","phone":"(802) 933-2328","type":"library"},{"name":"Mount Holly Town","address":{"address":"26 Maple Hill Rd.","city":"Belmont","state":"VT","zip":"05730"},"lat":"43.414459733000456","long":"-72.82121803099966","phone":"(802) 259-3707","type":"library"},{"name":"Kimball Public","address":{"address":"67 N. Main St.","city":"Randolph","state":"VT","zip":"05060"},"lat":"43.9251214680005","long":"-72.66570623999962","phone":"(802) 728-5073","type":"library"},{"name":"Springfield Town","address":{"address":"43 Main St.","city":"Springfield","state":"VT","zip":"05156"},"lat":"43.298186246000455","long":"-72.48198773499962","phone":"(802) 885-3108","type":"library"},{"name":"Morristown Centennial","address":{"address":"7 Richmond St.","city":"Morrisville","state":"VT","zip":"05661"},"lat":"44.56213364600046","long":"-72.59542811399967","phone":"(802) 888-3853","type":"library"},{"name":"Rochester Public","address":{"address":"22 S. Main St.","city":"Rochester","state":"VT","zip":"05767"},"lat":"43.87413500500048","long":"-72.80829849099968","phone":"(802) 767-3927","type":"library"},{"name":"Grand Isle Free","address":{"address":"10 Hyde Rd.","city":"Grand Isle","state":"VT","zip":"05458"},"lat":"44.72235701800048","long":"-73.29513345899966","phone":"(802) 372-4797","type":"library"},{"name":"Jeudevine Memorial","address":{"address":"93 N. Main St.","city":"Hardwick","state":"VT","zip":"05843"},"lat":"44.5056811340005","long":"-72.36523337799963","phone":"(802) 472-5948","type":"library"},{"name":"Cabot Public","address":{"address":"3084 Main St.","city":"Cabot","state":"VT","zip":"05647"},"lat":"44.40232718600049","long":"-72.31120890499966","phone":"(802) 563-2721","type":"library"},{"name":"Brookfield Free Public","address":{"address":"40 Ralph Rd.","city":"Brookfield","state":"VT","zip":"05036"},"lat":"44.04322723600046","long":"-72.60283777999967","phone":"(802) 276-3358","type":"library"},{"name":"Baldwin Memorial","address":{"address":"33 Main St.","city":"Wells River","state":"VT","zip":"05081"},"lat":"44.15351353300048","long":"-72.04688185399965","phone":"(802) 757-2693","type":"library"},{"name":"Solomon Wright Public","address":{"address":"97 Main St.","city":"Pownal","state":"VT","zip":"05261"},"lat":"42.767531678000466","long":"-73.24097751599965","phone":"(802) 823-5400","type":"library"},{"name":"Johnson Public","address":{"address":"7 Library Dr.","city":"Johnson","state":"VT","zip":"05656"},"lat":"44.63468346900049","long":"-72.68199068699965","phone":"(802) 635-7141","type":"library"},{"name":"Mark Skinner","address":{"address":"48 West Rd.","city":"Manchester","state":"VT","zip":"05254"},"lat":"43.16422834100047","long":"-73.07200254199967","phone":"(802) 362-2607","type":"library"},{"name":"Putney Public","address":{"address":"55 Main St.","city":"Putney","state":"VT","zip":"05346"},"lat":"42.96954338800049","long":"-72.52244834999965","phone":"(802) 387-4407","type":"library"},{"name":"Bent Northrup Memorial","address":{"address":"164 Park St.","city":"Fairfield","state":"VT","zip":"05455"},"lat":"44.79975226100049","long":"-72.94683650899964","phone":"(802) 827-3945","type":"library"},{"name":"Abbott Memorial","address":{"address":"15 Library Street","city":"S. Pomfret","state":"VT","zip":"05067"},"lat":"43.66499196500047","long":"-72.53911417699965","phone":"(802) 457-2236","type":"library"},{"name":"Brainerd Memorial","address":{"address":"4215 Bruce Badger Meml. Hwy.","city":"N. Danville","state":"VT","zip":"05828"},"lat":"44.430848126000456","long":"-72.11799841099963","phone":"N/R","type":"library"},{"name":"Jericho Town","address":{"address":"7 The Green","city":"Jericho Center","state":"VT","zip":"05465"},"lat":"44.4811980500005","long":"-72.96377980199964","phone":"(802) 899-4686","type":"library"},{"name":"Alburg Public","address":{"address":"16 S. Main St.","city":"Alburg","state":"VT","zip":"05440"},"lat":"44.975146735000465","long":"-73.30097022899963","phone":"(802) 796-6077","type":"library"},{"name":"Brownell","address":{"address":"6 Lincoln St.","city":"Essex Junction","state":"VT","zip":"05452"},"lat":"44.49101694600046","long":"-73.11098713499968","phone":"(802) 878-6955","type":"library"},{"name":"Dover Free","address":{"address":"22 Holland Road","city":"East Dover","state":"VT","zip":"05341"},"lat":"42.94451681400045","long":"-72.80310722299964","phone":"(802) 348-7488","type":"library"},{"name":"Pierson","address":{"address":"5376 Shelburne Rd.","city":"Shelburne","state":"VT","zip":"05482"},"lat":"44.37942189000046","long":"-73.22804494799965","phone":"(802) 985-5124","type":"library"},{"name":"North Hero Public","address":{"address":"3195 US Rte 2","city":"North Hero","state":"VT","zip":"05474"},"lat":"44.81178112500049","long":"-73.29217954099965","phone":"(802) 372-5458","type":"library"},{"name":"Georgia Public","address":{"address":"100 feet north of exit 18 on I-89 S","city":"Fairfax","state":"VT","zip":"05454"},"lat":"44.695007080000494","long":"-73.03241785299963","phone":"(802) 524-4643","type":"library"},{"name":"Royalton Memorial","address":{"address":"23 Alexander Pl.","city":"South Royalton","state":"VT","zip":"05068"},"lat":"43.81810414200049","long":"-72.51966380299967","phone":"(802) 763-7094","type":"library"},{"name":"Rockingham Free Public","address":{"address":"65 Westminster St.","city":"Bellows Falls","state":"VT","zip":"05101"},"lat":"43.130832729000474","long":"-72.44429745399964","phone":"(802) 463-4270","type":"library"},{"name":"Pope Memorial","address":{"address":"121 Park St.","city":"Danville","state":"VT","zip":"05828"},"lat":"44.41112379600048","long":"-72.14071788599966","phone":"(802) 684-2256","type":"library"},{"name":"Whitingham Free Public","address":{"address":"2948 VT Rte. 100","city":"Jacksonville","state":"VT","zip":"05342"},"lat":"42.79867809600046","long":"-72.82274473399963","phone":"(802) 368-7506","type":"library"},{"name":"Deborah Rawson Memorial","address":{"address":"8 River Rd.","city":"Jericho","state":"VT","zip":"05465"},"lat":"44.51866699900046","long":"-72.94696916199968","phone":"(802) 899-4962","type":"library"},{"name":"Waterville Town","address":{"address":"850 VT Route 109","city":"Waterville","state":"VT","zip":"05492"},"lat":"44.69390750600047","long":"-72.76637199899966","phone":"N/R","type":"library"},{"name":"South Hero Community","address":{"address":"75 South St","city":"South Hero","state":"VT","zip":"05486"},"lat":"44.63630018800046","long":"-73.30256207599967","phone":"(802) 372-6209","type":"library"},{"name":"Dorothy Alling Memorial","address":{"address":"21 Library Ln.","city":"Williston","state":"VT","zip":"05495"},"lat":"44.43904506700045","long":"-73.07409183999965","phone":"(802) 878-4918","type":"library"},{"name":"Jaquith Public","address":{"address":"122 School St.","city":"Marshfield","state":"VT","zip":"05658"},"lat":"44.34900151500045","long":"-72.35406558099965","phone":"(802) 426-3581","type":"library"},{"name":"Montgomery Town","address":{"address":"86 Mountain Rd.","city":"Montgomery Center","state":"VT","zip":"05471"},"lat":"44.87860432800045","long":"-72.60734208999963","phone":"(802) 326-3113","type":"library"},{"name":"Fair Haven Free","address":{"address":"107 Main St.","city":"Fair Haven","state":"VT","zip":"05743"},"lat":"43.594225768000456","long":"-73.26550410299967","phone":"(802) 265-8011","type":"library"},{"name":"Dailey Memorial","address":{"address":"101 Junior High Dr.","city":"Derby","state":"VT","zip":"05829"},"lat":"44.94895233300048","long":"-72.13224817399964","phone":"(802) 766-5063","type":"library"},{"name":"Vernon Free","address":{"address":"567 Governor Hunt Rd.","city":"Vernon","state":"VT","zip":"05354"},"lat":"42.780165774000466","long":"-72.52158846799966","phone":"(802) 257-0150","type":"library"},{"name":"Swanton Public","address":{"address":"1 First St.","city":"Swanton","state":"VT","zip":"05488"},"lat":"44.918319864000466","long":"-73.12434535199964","phone":"(802) 868-7656","type":"library"},{"name":"Lincoln","address":{"address":"222 West River Rd.","city":"Lincoln","state":"VT","zip":"05443"},"lat":"44.10821697300048","long":"-72.99996083099967","phone":"(802) 453-2665","type":"library"},{"name":"Weathersfield Proctor","address":{"address":"5181 Rte. 5","city":"Ascutney","state":"VT","zip":"05030"},"lat":"43.407071386000496","long":"-72.40751324699966","phone":"(802) 674-2863","type":"library"},{"name":"Haskell Free","address":{"address":"93 Caswell Ave.","city":"Derby Line","state":"VT","zip":"05830"},"lat":"45.00556711000047","long":"-72.09766222999963","phone":"(802) 873-3022","type":"library"},{"name":"Ilsley Public","address":{"address":"75 Main Street","city":"Middlebury","state":"VT","zip":"05753"},"lat":"44.01248233300049","long":"-73.16929112699967","phone":"(802) 388-4095","type":"library"},{"name":"R.K. Kittay Public","address":{"address":"2827 Rte. 153","city":"W. Rupert","state":"VT","zip":"05776"},"lat":"43.258653024000466","long":"-73.22454857099967","phone":"(802) 394-2444","type":"library"},{"name":"Lydia Taft Pratt","address":{"address":"150 West St.","city":"West Dummerston","state":"VT","zip":"05357"},"lat":"42.92804654200046","long":"-72.61341863499968","phone":"(802) 258-9878","type":"library"},{"name":"Grafton Public","address":{"address":"204 Main St.","city":"Grafton","state":"VT","zip":"05146"},"lat":"43.17187370400046","long":"-72.60714429299964","phone":"(802) 843-2404","type":"library"},{"name":"Richmond Free","address":{"address":"201 Bridge St.","city":"Richmond","state":"VT","zip":"05477"},"lat":"44.40322733700049","long":"-72.99505855899963","phone":"(802) 434-3036","type":"library"},{"name":"Tunbridge Public","address":{"address":"289 VT Rte. 110","city":"Tunbridge","state":"VT","zip":"05077"},"lat":"43.889650771000504","long":"-72.49225538199966","phone":"(802) 889-9404","type":"library"},{"name":"Aldrich Public","address":{"address":"6 Washington St.","city":"Barre","state":"VT","zip":"05641"},"lat":"44.197215876000485","long":"-72.50097974199963","phone":"(802) 476-7550","type":"library"},{"name":"Milton Public","address":{"address":"39 Bombardier Rd.","city":"Milton","state":"VT","zip":"05468"},"lat":"44.61967226200045","long":"-73.12415920099966","phone":"(802) 893-4644","type":"library"},{"name":"J. G. McCullough Free","address":{"address":"2 Main St.","city":"North Bennington","state":"VT","zip":"05257"},"lat":"42.92894538100046","long":"-73.24249119199965","phone":"(802) 447-7121","type":"library"},{"name":"Townshend Public","address":{"address":"1971 Rte. 30","city":"Townshend","state":"VT","zip":"05353"},"lat":"43.04530769900049","long":"-72.66682313799964","phone":"(802) 365-4039","type":"library"},{"name":"Charles B. Danforth","address":{"address":"6208 VT Rte. 12","city":"Barnard","state":"VT","zip":"05031"},"lat":"43.729065240000466","long":"-72.61981468499965","phone":"(802) 234-9408","type":"library"}]